{"data":{"J1":{"edges":[{"node":{"id":"toyota-stadium","coordinates":[137.17093,35.084576],"name":"豊田スタジアム","slug":"toyota-stadium","type":"stadium","population":{"val_1":7247,"val_10":441465,"val_3":105328,"val_5":222293},"clubs":[{"area":"愛知県","category":"J1","id":"29","hometown":"名古屋市、豊田市、みよし市を中心とする全県","name":"名古屋グランパス","short_name":"名古屋","slug":"nagoya"}]}},{"node":{"id":"tosu","coordinates":[130.520089,33.371697],"name":"駅前不動産スタジアム","slug":"tosu","type":"stadium","population":{"val_1":13139,"val_10":416150,"val_3":48366,"val_5":109766},"clubs":[{"area":"佐賀県","category":"J1","id":"18","hometown":"鳥栖市","name":"サガン鳥栖","short_name":"鳥栖","slug":"sagan"}]}},{"node":{"id":"todoroki","coordinates":[139.652698,35.585748],"name":"等々力陸上競技場","slug":"todoroki","type":"stadium","population":{"val_1":37521,"val_10":4517243,"val_3":438074,"val_5":1192799},"clubs":[{"area":"神奈川県","category":"J1","id":"8","hometown":"川崎市","name":"川崎フロンターレ","short_name":"川崎","slug":"kawasaki"}]}},{"node":{"id":"suita","coordinates":[135.538102,34.802746],"name":"パナソニックスタジアム吹田","slug":"suita","type":"stadium","population":{"val_1":20148,"val_10":2556270,"val_3":254600,"val_5":693440},"clubs":[{"area":"大阪府","category":"J1","id":"14","hometown":"吹田市、茨木市、高槻市、豊中市、池田市、摂津市、箕面市","name":"ガンバ大阪","short_name":"G大阪","slug":"gamba"}]}},{"node":{"id":"sendai","coordinates":[140.881807,38.319128],"name":"ユアテックスタジアム仙台","slug":"sendai","type":"stadium","population":{"val_1":22329,"val_10":916529,"val_3":139333,"val_5":337933},"clubs":[{"area":"宮城県","category":"J1","id":"2","hometown":"仙台市","name":"ベガルタ仙台","short_name":"仙台","slug":"vegalta"}]}},{"node":{"id":"sapporo-dome","coordinates":[141.409652,43.015161],"name":"札幌ドーム","slug":"sapporo-dome","type":"stadium","population":{"val_1":15729,"val_10":1256921,"val_3":182092,"val_5":505401},"clubs":[{"area":"北海道","category":"J1","id":"1","hometown":"札幌市を中心とする全道","name":"北海道コンサドーレ札幌","short_name":"札幌","slug":"consadole"}]}},{"node":{"id":"saitama-stadium","coordinates":[139.717597,35.903065],"name":"埼玉スタジアム2002","slug":"saitama-stadium","type":"stadium","population":{"val_1":1400,"val_10":2085635,"val_3":31216,"val_5":232031},"clubs":[{"area":"埼玉県","category":"J1","id":"4","hometown":"さいたま市","name":"浦和レッズ","short_name":"浦和","slug":"urawa"}]}},{"node":{"id":"nissan","coordinates":[139.606382,35.509945],"name":"日産スタジアム","slug":"nissan","type":"stadium","population":{"val_1":18723,"val_10":3206181,"val_3":237807,"val_5":758944},"clubs":[{"area":"神奈川県","category":"J1","id":"9","hometown":"横浜市、横須賀市、大和市","name":"横浜F・マリノス","short_name":"横浜FM","slug":"fmarinos"}]}},{"node":{"id":"naruto","coordinates":[134.617827,34.16829],"name":"鳴門・大塚スポーツパークポカリスウェットスタジアム","slug":"naruto","type":"stadium","population":{"val_1":5024,"val_10":113599,"val_3":27258,"val_5":49668},"clubs":[{"area":"徳島県","category":"J1","id":"35","hometown":"鳴門市、徳島市、吉野川市、美馬市、板野町、松茂町、藍住町、北島町を中心とする全県","name":"徳島ヴォルティス","short_name":"徳島","slug":"vortis"}]}},{"node":{"id":"nagai","coordinates":[135.51846,34.614145],"name":"ヤンマースタジアム長居","slug":"nagai","type":"stadium","population":{"val_1":41307,"val_10":3018805,"val_3":429782,"val_5":1039403},"clubs":[{"area":"大阪府","category":"J1","id":"15","hometown":"大阪市、堺市","name":"セレッソ大阪","short_name":"C大阪","slug":"cerezo"}]}},{"node":{"id":"mizuho","coordinates":[136.944283,35.122692],"name":"パロマ瑞穂スタジアム","slug":"mizuho","type":"stadium","population":{"val_1":28494,"val_10":2126127,"val_3":246819,"val_5":668744},"clubs":[{"area":"愛知県","category":"J1","id":"29","hometown":"名古屋市、豊田市、みよし市を中心とする全県","name":"名古屋グランパス","short_name":"名古屋","slug":"nagoya"}]}},{"node":{"id":"mitsuzawa","coordinates":[139.603761,35.469112],"name":"ニッパツ三ツ沢球技場","slug":"mitsuzawa","type":"stadium","population":{"val_1":35314,"val_10":2601369,"val_3":333775,"val_5":822546},"clubs":[{"area":"神奈川県","category":"J1","id":"25","hometown":"横浜市","name":"横浜FC","short_name":"横浜FC","slug":"yokohamafc"},{"area":"神奈川県","category":"J3","id":"45","hometown":"横浜市","name":"Y.S.C.C.横浜","short_name":"YS横浜","slug":"yscc"}]}},{"node":{"id":"nihondaira","coordinates":[138.481265,34.984725],"name":"IAIスタジアム日本平","slug":"nihondaira","type":"stadium","population":{"val_1":3673,"val_10":508944,"val_3":55833,"val_5":152095},"clubs":[{"area":"静岡県","category":"J1","id":"12","hometown":"静岡市","name":"清水エスパルス","short_name":"清水","slug":"shimizu"}]}},{"node":{"id":"komaba","coordinates":[139.66596,35.871501],"name":"浦和駒場スタジアム","slug":"komaba","type":"stadium","population":{"val_1":38147,"val_10":2210780,"val_3":305144,"val_5":738306},"clubs":[{"area":"埼玉県","category":"J1","id":"4","hometown":"さいたま市","name":"浦和レッズ","short_name":"浦和","slug":"urawa"}]}},{"node":{"id":"kobe-wing","coordinates":[135.168962,34.65672],"name":"ノエビアスタジアム神戸","slug":"kobe-wing","type":"stadium","population":{"val_1":14748,"val_10":818966,"val_3":155770,"val_5":324232},"clubs":[{"area":"兵庫県","category":"J1","id":"16","hometown":"神戸市","name":"ヴィッセル神戸","short_name":"神戸","slug":"vissel"}]}},{"node":{"id":"kobe-universiade","coordinates":[135.080375,34.682358],"name":"神戸総合運動公園ユニバー記念競技場","slug":"kobe-universiade","type":"stadium","population":{"val_1":13748,"val_10":1005468,"val_3":130193,"val_5":288611},"clubs":[{"area":"兵庫県","category":"J1","id":"16","hometown":"神戸市","name":"ヴィッセル神戸","short_name":"神戸","slug":"vissel"}]}},{"node":{"id":"kincho-stadium","coordinates":[135.516438,34.615374],"name":"ヨドコウ桜スタジアム","slug":"kincho-stadium","type":"stadium","population":{"val_1":46683,"val_10":3016651,"val_3":438502,"val_5":1045944},"clubs":[{"area":"大阪府","category":"J1","id":"15","hometown":"大阪市、堺市","name":"セレッソ大阪","short_name":"C大阪","slug":"cerezo"}]}},{"node":{"id":"kashima","coordinates":[140.640384,35.992019],"name":"県立カシマサッカースタジアム","slug":"kashima","type":"stadium","population":{"val_1":1607,"val_10":106664,"val_3":26307,"val_5":51760},"clubs":[{"area":"茨城県","category":"J1","id":"3","hometown":"鹿嶋市、潮来市、神栖市、行方市、鉾田市","name":"鹿島アントラーズ","short_name":"鹿島","slug":"antlers"}]}},{"node":{"id":"hitachidai","coordinates":[139.975108,35.848445],"name":"三協フロンテアスタジアム柏","slug":"hitachidai","type":"stadium","population":{"val_1":29804,"val_10":1360966,"val_3":217161,"val_5":489938},"clubs":[{"area":"千葉県","category":"J1","id":"6","hometown":"柏市","name":"柏レイソル","short_name":"柏","slug":"reysol"}]}},{"node":{"id":"hiroshima-new-stadium","coordinates":[132.455947,34.401027],"name":"広島中央公園スタジアム (計画)","slug":"hiroshima-new-stadium","type":"stadium","population":{"val_1":28440,"val_10":1074083,"val_3":245157,"val_5":564973},"clubs":[{"area":"広島県","category":"J1","id":"17","hometown":"広島市","name":"サンフレッチェ広島","short_name":"広島","slug":"sanfrecce"}]}},{"node":{"id":"hiratsuka","coordinates":[139.341197,35.343542],"name":"レモンガススタジアム平塚","slug":"hiratsuka","type":"stadium","population":{"val_1":16862,"val_10":856714,"val_3":173119,"val_5":315602},"clubs":[{"area":"神奈川県","category":"J1","id":"26","hometown":"厚木市、伊勢原市、小田原市、茅ヶ崎市、秦野市、平塚市、藤沢市、大磯町、寒川町、二宮町、鎌倉市、南足柄市、大井町、開成町、中井町、箱根町、松田町、真鶴町、山北町、湯河原町","name":"湘南ベルマーレ","short_name":"湘南","slug":"bellmare"}]}},{"node":{"id":"hakatanomori","coordinates":[130.460857,33.585915],"name":"ベスト電器スタジアム","slug":"hakatanomori","type":"stadium","population":{"val_1":6491,"val_10":1537899,"val_3":118180,"val_5":494355},"clubs":[{"area":"福岡県","category":"J1","id":"37","hometown":"福岡市","name":"アビスパ福岡","short_name":"福岡","slug":"avispa"}]}},{"node":{"id":"big-eye","coordinates":[131.657541,33.200765],"name":"昭和電工ドーム大分","slug":"big-eye","type":"stadium","population":{"val_1":984,"val_10":443911,"val_3":47961,"val_5":175307},"clubs":[{"area":"大分県","category":"J1","id":"40","hometown":"大分市、別府市、佐伯市を中心とする全県","name":"大分トリニータ","short_name":"大分","slug":"trinita"}]}},{"node":{"id":"atsubetsu","coordinates":[141.464145,43.019009],"name":"札幌厚別公園競技場","slug":"atsubetsu","type":"stadium","population":{"val_1":19734,"val_10":962381,"val_3":158304,"val_5":355226},"clubs":[{"area":"北海道","category":"J1","id":"1","hometown":"札幌市を中心とする全道","name":"北海道コンサドーレ札幌","short_name":"札幌","slug":"consadole"}]}},{"node":{"id":"bigarch","coordinates":[132.394279,34.440776],"name":"エディオンスタジアム広島","slug":"bigarch","type":"stadium","population":{"val_1":5686,"val_10":821414,"val_3":33899,"val_5":98346},"clubs":[{"area":"広島県","category":"J1","id":"17","hometown":"広島市","name":"サンフレッチェ広島","short_name":"広島","slug":"sanfrecce"}]}},{"node":{"id":"ajista","coordinates":[139.527144,35.664311],"name":"味の素スタジアム","slug":"ajista","type":"stadium","population":{"val_1":23204,"val_10":3240957,"val_3":237928,"val_5":784195},"clubs":[{"area":"東京都","category":"J1","id":"7","hometown":"東京都","name":"FC東京","short_name":"FC東京","slug":"fctokyo"},{"area":"東京都","category":"J2","id":"23","hometown":"東京都","name":"東京ヴェルディ","short_name":"東京V","slug":"verdy"}]}}]},"J2":{"edges":[{"node":{"id":"yamaha","coordinates":[137.875087,34.725201],"name":"ヤマハスタジアム","slug":"yamaha","type":"stadium","population":{"val_1":9514,"val_10":334780,"val_3":57694,"val_5":123582},"clubs":[{"area":"静岡県","category":"J2","id":"13","hometown":"磐田市","name":"ジュビロ磐田","short_name":"磐田","slug":"jubilo"}]}},{"node":{"id":"yabase-stadium","coordinates":[140.099758,39.721528],"name":"あきぎんスタジアム","slug":"yabase-stadium","type":"stadium","population":{"val_1":14238,"val_10":292678,"val_3":104545,"val_5":215623},"clubs":[{"area":"秋田県","category":"J2","id":"42","hometown":"秋田市、由利本荘市、にかほ市、男鹿市を中心とする全県","name":"ブラウブリッツ秋田","short_name":"秋田","slug":"braublitz"}]}},{"node":{"id":"yabase-athletic","coordinates":[140.095758,39.721561],"name":"ソユースタジアム","slug":"yabase-athletic","type":"stadium","population":{"val_1":12324,"val_10":292805,"val_3":98625,"val_5":211278},"clubs":[{"area":"秋田県","category":"J2","id":"42","hometown":"秋田市、由利本荘市、にかほ市、男鹿市を中心とする全県","name":"ブラウブリッツ秋田","short_name":"秋田","slug":"braublitz"}]}},{"node":{"id":"shikishima","coordinates":[139.053278,36.41156],"name":"正田醤油スタジアム群馬","slug":"shikishima","type":"stadium","population":{"val_1":9870,"val_10":522136,"val_3":85815,"val_5":192397},"clubs":[{"area":"群馬県","category":"J2","id":"21","hometown":"草津町、前橋市を中心とする全県","name":"ザスパクサツ群馬","short_name":"群馬","slug":"thespa"}]}},{"node":{"id":"seibu-ryokuchi","coordinates":[136.605197,36.575828],"name":"石川県西部緑地公園陸上競技場","slug":"seibu-ryokuchi","type":"stadium","population":{"val_1":4605,"val_10":587135,"val_3":95319,"val_5":249080},"clubs":[{"area":"石川県","category":"J2","id":"28","hometown":"金沢市、白山市、野々市市、かほく市、津幡町、内灘町を中心とする全県","name":"ツエーゲン金沢","short_name":"金沢","slug":"zweigen"}]}},{"node":{"id":"sagamihara","coordinates":[139.386331,35.526971],"name":"相模原ギオンスタジアム","slug":"sagamihara","type":"stadium","population":{"val_1":7011,"val_10":1736958,"val_3":111832,"val_5":481027},"clubs":[{"area":"神奈川県","category":"J2","id":"46","hometown":"相模原市、座間市、綾瀬市、愛川町","name":"SC相模原","short_name":"相模原","slug":"scsagamihara"}]}},{"node":{"id":"ounoyama","coordinates":[127.67629,26.20493],"name":"奥武山スタジアム (計画)","slug":"ounoyama","type":"stadium","population":{"val_1":23239,"val_10":714284,"val_3":210685,"val_5":370385},"clubs":[{"area":"沖縄県","category":"J2","id":"54","hometown":"沖縄市を中心とする全県","name":"FC琉球","short_name":"琉球","slug":"fcryukyu"}]}},{"node":{"id":"omiya","coordinates":[139.633509,35.916257],"name":"NACK5スタジアム大宮","slug":"omiya","type":"stadium","population":{"val_1":27321,"val_10":1645219,"val_3":251845,"val_5":625825},"clubs":[{"area":"埼玉県","category":"J2","id":"5","hometown":"さいたま市","name":"大宮アルディージャ","short_name":"大宮","slug":"ardija"}]}},{"node":{"id":"okinawa","coordinates":[127.788536,26.33296],"name":"タピック県総ひやごんスタジアム","slug":"okinawa","type":"stadium","population":{"val_1":11583,"val_10":431267,"val_3":80591,"val_5":192482},"clubs":[{"area":"沖縄県","category":"J2","id":"54","hometown":"沖縄市を中心とする全県","name":"FC琉球","short_name":"琉球","slug":"fcryukyu"}]}},{"node":{"id":"nozuta","coordinates":[139.438961,35.592529],"name":"町田GIONスタジアム","slug":"nozuta","type":"stadium","population":{"val_1":5517,"val_10":2259977,"val_3":125794,"val_5":499311},"clubs":[{"area":"東京都","category":"J2","id":"24","hometown":"町田市","name":"FC町田ゼルビア","short_name":"町田","slug":"zelvia"}]}},{"node":{"id":"nishikyogoku","coordinates":[135.713976,34.993517],"name":"京都市西京極総合運動公園陸上競技場兼球技場","slug":"nishikyogoku","type":"stadium","population":{"val_1":30195,"val_10":1483501,"val_3":315050,"val_5":689697},"clubs":[{"area":"京都府","category":"J2","id":"31","hometown":"京都市、宇治市、城陽市、向日市、長岡京市、京田辺市、木津川市、亀岡市、南丹市、京丹波町、福知山市、舞鶴市、綾部市、八幡市","name":"京都サンガF.C.","short_name":"京都","slug":"sanga"}]}},{"node":{"id":"nishikawada","coordinates":[139.857293,36.514572],"name":"カンセキスタジアムとちぎ","slug":"nishikawada","type":"stadium","population":{"val_1":14258,"val_10":514166,"val_3":88194,"val_5":165641},"clubs":[{"area":"栃木県","category":"J2","id":"44","hometown":"宇都宮市","name":"栃木SC","short_name":"栃木","slug":"tochigisc"}]}},{"node":{"id":"nagasaki-stadium","coordinates":[129.864712,32.759148],"name":"長崎市新スタジアム (計画)","slug":"nagasaki-stadium","type":"stadium","population":{"val_1":18639,"val_10":433490,"val_3":130591,"val_5":248720},"clubs":[{"area":"長崎県","category":"J2","id":"38","hometown":"長崎市、諫早市を中心とする全県","name":"V・ファーレン長崎","short_name":"長崎","slug":"vvaren"}]}},{"node":{"id":"momotaro","coordinates":[133.919584,34.680577],"name":"シティライトスタジアム","slug":"momotaro","type":"stadium","population":{"val_1":21527,"val_10":611947,"val_3":135065,"val_5":272201},"clubs":[{"area":"岡山県","category":"J2","id":"32","hometown":"岡山市、倉敷市、津山市を中心とする全県","name":"ファジアーノ岡山","short_name":"岡山","slug":"fagiano"}]}},{"node":{"id":"kyoto-stadium","coordinates":[135.583507,35.017415],"name":"サンガスタジアム by KYOCERA","slug":"kyoto-stadium","type":"stadium","population":{"val_1":7603,"val_10":163487,"val_3":50919,"val_5":77377},"clubs":[{"area":"京都府","category":"J2","id":"31","hometown":"京都市、宇治市、城陽市、向日市、長岡京市、京田辺市、木津川市、亀岡市、南丹市、京丹波町、福知山市、舞鶴市、綾部市、八幡市","name":"京都サンガF.C.","short_name":"京都","slug":"sanga"}]}},{"node":{"id":"kose","coordinates":[138.589827,35.622352],"name":"山梨中銀スタジアム","slug":"kose","type":"stadium","population":{"val_1":4352,"val_10":398128,"val_3":60851,"val_5":155406},"clubs":[{"area":"山梨県","category":"J2","id":"10","hometown":"甲府市、韮崎市を中心とする全県","name":"ヴァンフォーレ甲府","short_name":"甲府","slug":"ventforet"}]}},{"node":{"id":"kobuki","coordinates":[140.412219,36.345384],"name":"ケーズデンキスタジアム水戸","slug":"kobuki","type":"stadium","population":{"val_1":564,"val_10":322534,"val_3":26192,"val_5":117008},"clubs":[{"area":"茨城県","category":"J2","id":"20","hometown":"水戸市、ひたちなか市、笠間市、那珂市、小美玉市、茨城町、城里町、大洗町、東海村","name":"水戸ホーリーホック","short_name":"水戸","slug":"mitohollyhock"}]}},{"node":{"id":"kitakyushu-stadium","coordinates":[130.888839,33.891105],"name":"ミクニワールドスタジアム北九州","slug":"kitakyushu-stadium","type":"stadium","population":{"val_1":4383,"val_10":684109,"val_3":102430,"val_5":271759},"clubs":[{"area":"福岡県","category":"J2","id":"52","hometown":"北九州市","name":"ギラヴァンツ北九州","short_name":"北九州","slug":"giravanz"}]}},{"node":{"id":"kanazawa-stadium","coordinates":[136.658389,36.597502],"name":"金沢市民サッカー場 (改修計画)","slug":"kanazawa-stadium","type":"stadium","population":{"val_1":4435,"val_10":541902,"val_3":102064,"val_5":233571},"clubs":[{"area":"石川県","category":"J2","id":"28","hometown":"金沢市、白山市、野々市市、かほく市、津幡町、内灘町を中心とする全県","name":"ツエーゲン金沢","short_name":"金沢","slug":"zweigen"}]}},{"node":{"id":"ishin","coordinates":[131.43742,34.15443],"name":"維新みらいふスタジアム","slug":"ishin","type":"stadium","population":{"val_1":5621,"val_10":157537,"val_3":56742,"val_5":84222},"clubs":[{"area":"山口県","category":"J2","id":"33","hometown":"山口市、下関市、山陽小野田市、宇部市、防府市、周南市、美祢市、萩市、下松市、岩国市、光市、長門市、柳井市、周防大島町、和木町、上関町、田布施町、平生町、阿武町【山口県全県】","name":"レノファ山口FC","short_name":"山口","slug":"renofa"}]}},{"node":{"id":"isahaya","coordinates":[130.039365,32.838608],"name":"トランスコスモススタジアム長崎","slug":"isahaya","type":"stadium","population":{"val_1":6800,"val_10":154038,"val_3":64632,"val_5":89604},"clubs":[{"area":"長崎県","category":"J2","id":"38","hometown":"長崎市、諫早市を中心とする全県","name":"V・ファーレン長崎","short_name":"長崎","slug":"vvaren"}]}},{"node":{"id":"grista","coordinates":[139.986558,36.556707],"name":"栃木県グリーンスタジアム","slug":"grista","type":"stadium","population":{"val_1":5716,"val_10":305856,"val_3":23262,"val_5":41584},"clubs":[{"area":"栃木県","category":"J2","id":"44","hometown":"宇都宮市","name":"栃木SC","short_name":"栃木","slug":"tochigisc"}]}},{"node":{"id":"fukuari","coordinates":[140.122807,35.577541],"name":"フクダ電子アリーナ","slug":"fukuari","type":"stadium","population":{"val_1":8085,"val_10":955606,"val_3":92158,"val_5":256496},"clubs":[{"area":"千葉県","category":"J2","id":"22","hometown":"市原市、千葉市","name":"ジェフユナイテッド千葉","short_name":"千葉","slug":"jefunited"}]}},{"node":{"id":"ehime","coordinates":[132.797535,33.768262],"name":"ニンジニアスタジアム","slug":"ehime","type":"stadium","population":{"val_1":4764,"val_10":434250,"val_3":31039,"val_5":82957},"clubs":[{"area":"愛媛県","category":"J2","id":"36","hometown":"松山市を中心とする全県","name":"愛媛FC","short_name":"愛媛","slug":"ehimefc"}]}},{"node":{"id":"bigswan","coordinates":[139.059112,37.882492],"name":"デンカビッグスワンスタジアム","slug":"bigswan","type":"stadium","population":{"val_1":1337,"val_10":555828,"val_3":84219,"val_5":262941},"clubs":[{"area":"新潟県","category":"J2","id":"11","hometown":"新潟市、聖籠町、長岡市、三条市、柏崎市、新発田市、小千谷市、加茂市、十日町市、見附市、村上市、燕市、糸魚川市、妙高市、五泉市、上越市、阿賀野市、佐渡市、魚沼市、南魚沼市、胎内市、弥彦村、田上町、阿賀町、出雲崎市、湯沢町、津南町、刈羽村、関川村、粟島浦村【新潟県全県】","name":"アルビレックス新潟","short_name":"新潟","slug":"albirex"}]}},{"node":{"id":"bespa","coordinates":[140.378442,38.335592],"name":"NDソフトスタジアム山形","slug":"bespa","type":"stadium","population":{"val_1":2044,"val_10":220967,"val_3":29307,"val_5":64474},"clubs":[{"area":"山形県","category":"J2","id":"19","hometown":"山形市、天童市、鶴岡市を中心とする全県","name":"モンテディオ山形","short_name":"山形","slug":"montedio"}]}},{"node":{"id":"alwin","coordinates":[137.917093,36.179733],"name":"サンプロ アルウィン","slug":"alwin","type":"stadium","population":{"val_1":1251,"val_10":298430,"val_3":18314,"val_5":87078},"clubs":[{"area":"長野県","category":"J2","id":"27","hometown":"松本市、塩尻市、山形村、安曇野市、大町市、池田町、生坂村、箕輪町、朝日村","name":"松本山雅FC","short_name":"松本","slug":"yamaga"}]}},{"node":{"id":"ajista","coordinates":[139.527144,35.664311],"name":"味の素スタジアム","slug":"ajista","type":"stadium","population":{"val_1":23204,"val_10":3240957,"val_3":237928,"val_5":784195},"clubs":[{"area":"東京都","category":"J1","id":"7","hometown":"東京都","name":"FC東京","short_name":"FC東京","slug":"fctokyo"},{"area":"東京都","category":"J2","id":"23","hometown":"東京都","name":"東京ヴェルディ","short_name":"東京V","slug":"verdy"}]}}]},"J3":{"edges":[{"node":{"id":"yumesta","coordinates":[132.956008,34.041102],"name":"ありがとうサービス・夢スタジアム","slug":"yumesta","type":"stadium","population":{"val_1":281,"val_10":136376,"val_3":20528,"val_5":69810},"clubs":[{"area":"愛媛県","category":"J3","id":"56","hometown":"今治市","name":"FC今治","short_name":"今治","slug":"fcimabari"}]}},{"node":{"id":"yajin","coordinates":[133.307492,35.448225],"name":"チュウブYAJINスタジアム","slug":"yajin","type":"stadium","population":{"val_1":10784,"val_10":184560,"val_3":55006,"val_5":107244},"clubs":[{"area":"鳥取県","category":"J3","id":"51","hometown":"鳥取市、米子市、倉吉市、境港市を中心とする全県","name":"ガイナーレ鳥取","short_name":"鳥取","slug":"gainare"}]}},{"node":{"id":"toyama-kenso","coordinates":[137.195693,36.62502],"name":"富山県総合運動公園陸上競技場","slug":"toyama-kenso","type":"stadium","population":{"val_1":839,"val_10":303059,"val_3":19397,"val_5":79412},"clubs":[{"area":"富山県","category":"J3","id":"48","hometown":"富山市を中心とする全県","name":"カターレ富山","short_name":"富山","slug":"kataller"}]}},{"node":{"id":"tottori-bird","coordinates":[134.221755,35.458214],"name":"Axisバードスタジアム","slug":"tottori-bird","type":"stadium","population":{"val_1":1398,"val_10":170634,"val_3":28569,"val_5":81321},"clubs":[{"area":"鳥取県","category":"J3","id":"51","hometown":"鳥取市、米子市、倉吉市、境港市を中心とする全県","name":"ガイナーレ鳥取","short_name":"鳥取","slug":"gainare"}]}},{"node":{"id":"shintomi-centre","coordinates":[131.495187,32.076724],"name":"ユニリーバスタジアム新富","slug":"shintomi-centre","type":"stadium","population":{"val_1":2250,"val_10":90489,"val_3":9657,"val_5":16055},"clubs":[{"area":"宮崎県","category":"J3","id":"57","hometown":"宮崎市、新富町","name":"テゲバジャーロ宮崎","short_name":"宮崎","slug":"tegevajaro"}]}},{"node":{"id":"nagaragawa","coordinates":[136.766131,35.441356],"name":"岐阜メモリアルセンター長良川競技場","slug":"nagaragawa","type":"stadium","population":{"val_1":14687,"val_10":617445,"val_3":98338,"val_5":226747},"clubs":[{"area":"岐阜県","category":"J3","id":"30","hometown":"岐阜市を中心とする全県","name":"FC岐阜","short_name":"岐阜","slug":"fcgifu"}]}},{"node":{"id":"mitsuzawa","coordinates":[139.603761,35.469112],"name":"ニッパツ三ツ沢球技場","slug":"mitsuzawa","type":"stadium","population":{"val_1":35314,"val_10":2601369,"val_3":333775,"val_5":822546},"clubs":[{"area":"神奈川県","category":"J1","id":"25","hometown":"横浜市","name":"横浜FC","short_name":"横浜FC","slug":"yokohamafc"},{"area":"神奈川県","category":"J3","id":"45","hometown":"横浜市","name":"Y.S.C.C.横浜","short_name":"YS横浜","slug":"yscc"}]}},{"node":{"id":"minami-nagano","coordinates":[138.169868,36.579995],"name":"長野Uスタジアム","slug":"minami-nagano","type":"stadium","population":{"val_1":2792,"val_10":306320,"val_3":45865,"val_5":115410},"clubs":[{"area":"長野県","category":"J3","id":"47","hometown":"長野市、須坂市、中野市、飯山市、千曲市、坂城市、小布施町、高山村、山ノ内町、木島平村、野沢温泉村、信濃町、飯綱町、小川村、栄村、佐久市","name":"AC長野パルセイロ","short_name":"長野","slug":"parceiro"}]}},{"node":{"id":"marugame","coordinates":[133.786021,34.261755],"name":"Pikaraスタジアム","slug":"marugame","type":"stadium","population":{"val_1":4667,"val_10":238975,"val_3":57245,"val_5":126151},"clubs":[{"area":"香川県","category":"J3","id":"34","hometown":"高松市、丸亀市を中心とする全県","name":"カマタマーレ讃岐","short_name":"讃岐","slug":"kamatamare"}]}},{"node":{"id":"kkwing","coordinates":[130.800092,32.836868],"name":"えがお健康スタジアム","slug":"kkwing","type":"stadium","population":{"val_1":2121,"val_10":625836,"val_3":46774,"val_5":180303},"clubs":[{"area":"熊本県","category":"J3","id":"39","hometown":"熊本市","name":"ロアッソ熊本","short_name":"熊本","slug":"roasso"}]}},{"node":{"id":"kamoike","coordinates":[130.560178,31.564892],"name":"白波スタジアム","slug":"kamoike","type":"stadium","population":{"val_1":15150,"val_10":530319,"val_3":133549,"val_5":267331},"clubs":[{"area":"鹿児島県","category":"J3","id":"53","hometown":"鹿児島市","name":"鹿児島ユナイテッドFC","short_name":"鹿児島","slug":"kufc"}]}},{"node":{"id":"hachonohe-taga","coordinates":[141.456191,40.590534],"name":"プライフーズスタジアム","slug":"hachonohe-taga","type":"stadium","population":{"val_1":1553,"val_10":122762,"val_3":12072,"val_5":23089},"clubs":[{"area":"青森県","category":"J3","id":"55","hometown":"八戸市、十和田市、五戸町、階上町、田子町、南部町、おいらせ町、新郷村、三沢市、七戸町、六戸町、東北町、横浜町、野辺地町、六ケ所村","name":"ヴァンラーレ八戸","short_name":"八戸","slug":"vanraure"}]}},{"node":{"id":"fujieda","coordinates":[138.232986,34.881578],"name":"藤枝総合運動公園サッカー場","slug":"fujieda","type":"stadium","population":{"val_1":2931,"val_10":336913,"val_3":40631,"val_5":109812},"clubs":[{"area":"静岡県","category":"J3","id":"49","hometown":"藤枝市、島田市、焼津市、牧之原市、吉田町、川根本町","name":"藤枝MYFC","short_name":"藤枝","slug":"myfc"}]}},{"node":{"id":"azuma","coordinates":[140.361275,37.723309],"name":"とうほう・みんなのスタジアム","slug":"azuma","type":"stadium","population":{"val_1":513,"val_10":146752,"val_3":7007,"val_5":15148},"clubs":[{"area":"福島県","category":"J3","id":"43","hometown":"福島市、会津若松市を中心とする全県","name":"福島ユナイテッドFC","short_name":"福島","slug":"fufc"}]}},{"node":{"id":"ashitaka","coordinates":[138.853634,35.155899],"name":"静岡県愛鷹広域公園多目的競技場","slug":"ashitaka","type":"stadium","population":{"val_1":746,"val_10":410512,"val_3":10068,"val_5":100993},"clubs":[{"area":"静岡県","category":"J3","id":"50","hometown":"沼津市","name":"アスルクラロ沼津","short_name":"沼津","slug":"azulclaro"}]}}]},"JFL":{"edges":[{"node":{"id":"wave-kariya","coordinates":[137.012659,35.019058],"name":"ウェーブスタジアム刈谷","slug":"wave-kariya","type":"stadium","population":{"val_1":12008,"val_10":984528,"val_3":84771,"val_5":255329},"clubs":[{"area":"愛知県","category":"JFL","id":"64","hometown":"刈谷市","name":"FC刈谷","short_name":"刈谷","slug":"fckariya"}]}},{"node":{"id":"tsuno-town","coordinates":[131.557749,32.267254],"name":"都農町藤見公園陸上競技場","slug":"tsuno-town","type":"stadium","population":{"val_1":1232,"val_10":25238,"val_3":8547,"val_5":11480},"clubs":[{"area":"宮崎県","category":"JFL","id":"74","hometown":"宮崎市","name":"ホンダロックSC","short_name":"ロック","slug":"hondalock"}]}},{"node":{"id":"toincho","coordinates":[136.578312,35.071393],"name":"朝日ガスエナジー東員スタジアム","slug":"toincho","type":"stadium","population":{"val_1":1884,"val_10":325545,"val_3":20899,"val_5":73052},"clubs":[{"area":"三重県","category":"JFL","id":"65","hometown":"桑名市、いなべ市、員弁郡東員町、桑名郡木曽岬町、三重郡菰野町、川越町、朝日町","name":"ヴィアティン三重","short_name":"三重","slug":"veertien"}]}},{"node":{"id":"oitadome-a","coordinates":[131.650789,33.199139],"name":"昭和電工サッカー・ラグビー場 Aコート","slug":"oitadome-a","type":"stadium","population":{"val_1":168,"val_10":444209,"val_3":50220,"val_5":191360},"clubs":[{"area":"大分県","category":"JFL","id":"73","hometown":"由布市、大分市","name":"ヴェルスパ大分","short_name":"V大分","slug":"verspah"}]}},{"node":{"id":"nunobiki-green","coordinates":[136.197006,35.084391],"name":"東近江市布引運動公園陸上競技場","slug":"nunobiki-green","type":"stadium","population":{"val_1":1622,"val_10":175541,"val_3":28984,"val_5":51162},"clubs":[{"area":"滋賀県","category":"JFL","id":"67","hometown":"草津市、東近江市","name":"MIOびわこ滋賀","short_name":"滋賀","slug":"miobiwako"}]}},{"node":{"id":"new-aomori-athletic","coordinates":[140.841116,40.838879],"name":"カクヒログループ アスレチックスタジアム","slug":"new-aomori-athletic","type":"stadium","population":{"val_1":1060,"val_10":173264,"val_3":9116,"val_5":36149},"clubs":[{"area":"青森県","category":"JFL","id":"58","hometown":"青森市","name":"ラインメール青森","short_name":"青森","slug":"reinmeer"}]}},{"node":{"id":"musariku","coordinates":[139.568351,35.717417],"name":"武蔵野市立武蔵野陸上競技場","slug":"musariku","type":"stadium","population":{"val_1":43282,"val_10":3912952,"val_3":388406,"val_5":1033783},"clubs":[{"area":"東京都","category":"JFL","id":"61","hometown":"武蔵野市","name":"東京武蔵野ユナイテッドFC","short_name":"武蔵野","slug":"musashino"}]}},{"node":{"id":"miyakoda","coordinates":[137.722395,34.810599],"name":"都田サッカー場","slug":"miyakoda","type":"stadium","population":{"val_1":1992,"val_10":414530,"val_3":25833,"val_5":90511},"clubs":[{"area":"静岡県","category":"JFL","id":"62","hometown":"浜松市","name":"Honda FC","short_name":"Honda","slug":"hondafc"}]}},{"node":{"id":"miyagi-soccer","coordinates":[140.973298,38.343272],"name":"みやぎ生協めぐみのサッカー場","slug":"miyagi-soccer","type":"stadium","population":{"val_1":7283,"val_10":530490,"val_3":24315,"val_5":83883},"clubs":[{"area":"宮城県","category":"JFL","id":"59","hometown":"仙台市","name":"ソニー仙台FC","short_name":"ソニー","slug":"sonysendaifc"}]}},{"node":{"id":"matsue","coordinates":[133.06598,35.436956],"name":"松江市営陸上競技場","slug":"matsue","type":"stadium","population":{"val_1":10609,"val_10":175525,"val_3":58836,"val_5":101527},"clubs":[{"area":"島根県","category":"JFL","id":"71","hometown":"松江市","name":"松江シティFC","short_name":"松江","slug":"matsuecity"}]}},{"node":{"id":"konoike","coordinates":[135.829196,34.697585],"name":"奈良市鴻ノ池陸上競技場","slug":"konoike","type":"stadium","population":{"val_1":8815,"val_10":548789,"val_3":93496,"val_5":207900},"clubs":[{"area":"奈良県","category":"JFL","id":"68","hometown":"奈良市を中心とする奈良県全県","name":"奈良クラブ","short_name":"奈良","slug":"naraclub"}]}},{"node":{"id":"j-village","coordinates":[141.00324,37.238821],"name":"Jヴィレッジスタジアム","slug":"j-village","type":"stadium","population":{"val_1":942,"val_10":7443,"val_3":2519,"val_5":4430},"clubs":[{"area":"福島県","category":"JFL","id":"60","hometown":"いわき市、双葉郡双葉町、広野町、楢葉町、富岡町、大熊町、浪江町、川内村、葛尾村","name":"いわきFC","short_name":"いわき","slug":"iwakifc"}]}},{"node":{"id":"iwakifc-park","coordinates":[140.828302,37.000033],"name":"いわきFCパーク","slug":"iwakifc-park","type":"stadium","population":{"val_1":4656,"val_10":246307,"val_3":27046,"val_5":51117},"clubs":[{"area":"福島県","category":"JFL","id":"60","hometown":"いわき市、双葉郡双葉町、広野町、楢葉町、富岡町、大熊町、浪江町、川内村、葛尾村","name":"いわきFC","short_name":"いわき","slug":"iwakifc"}]}},{"node":{"id":"hirakata","coordinates":[135.683667,34.818972],"name":"枚方陸上競技場","slug":"hirakata","type":"stadium","population":{"val_1":9565,"val_10":1415207,"val_3":195298,"val_5":454740},"clubs":[{"area":"大阪府","category":"JFL","id":"69","hometown":"枚方市","name":"FCティアモ枚方","short_name":"枚方","slug":"fctiamo"}]}},{"node":{"id":"haruno","coordinates":[133.499698,33.510754],"name":"春野運動公園球技場","slug":"haruno","type":"stadium","population":{"val_1":608,"val_10":332479,"val_3":17247,"val_5":103631},"clubs":[{"area":"高知県","category":"JFL","id":"72","hometown":"高知県","name":"高知ユナイテッドSC","short_name":"高知","slug":"kochiufc"}]}},{"node":{"id":"agf-suzuka","coordinates":[136.569233,34.857449],"name":"AGF鈴鹿陸上競技場","slug":"agf-suzuka","type":"stadium","population":{"val_1":12728,"val_10":287984,"val_3":77851,"val_5":136659},"clubs":[{"area":"三重県","category":"JFL","id":"66","hometown":"鈴鹿市","name":"鈴鹿ポイントゲッターズ","short_name":"鈴鹿","slug":"suzuka"}]}}]}}}